City,Lat,Lng,Max Temp,Humidity,Cloudiness,Wind,Country,Date
port alfred,-33.59,26.89,59.0,83,0,1.99,ZA,1590275891
bethel,41.37,-73.41,57.0,82,90,9.17,US,1590275480
mahebourg,-20.41,57.7,68.0,88,20,2.24,MU,1590275891
bathsheba,13.22,-59.52,82.4,69,20,14.99,BB,1590275891
kapaa,22.08,-159.32,81.0,78,40,10.29,US,1590275891
gat,31.61,34.76,69.01,78,24,12.55,IL,1590275891
evanston,42.04,-87.69,73.99,83,75,10.29,US,1590275772
oak ridge,36.01,-84.27,82.99,61,1,4.41,US,1590275776
la grande,45.32,-118.09,63.0,42,1,6.93,US,1590275891
thompson,55.74,-97.86,73.4,27,75,11.41,CA,1590275891
saint-philippe,-21.36,55.77,66.2,72,75,6.93,RE,1590275891
san quintin,30.48,-115.95,65.77,63,0,18.12,MX,1590275891
dniprovka,47.43,34.62,46.99,67,52,5.75,UA,1590275891
kara-tyube,44.63,45.44,51.33,80,94,6.82,RU,1590275891
cape town,-33.93,18.42,59.0,100,0,8.05,ZA,1590275643
sept-iles,50.2,-66.38,45.0,45,40,9.17,CA,1590275892
hilo,19.73,-155.09,82.4,58,75,5.82,US,1590275892
huarmey,-10.07,-78.15,67.66,77,71,7.83,PE,1590275892
busselton,-33.65,115.33,64.99,25,100,21.18,AU,1590275892
ribeira grande,38.52,-28.7,65.3,92,100,14.38,PT,1590275892
bredasdorp,-34.53,20.04,51.8,76,0,3.36,ZA,1590275892
nanortalik,60.14,-45.24,43.74,67,100,3.78,GL,1590275892
vestmannaeyjar,63.44,-20.27,48.43,74,1,15.05,IS,1590275892
tasiilaq,65.61,-37.64,41.0,60,100,21.92,GL,1590275892
port-gentil,-0.72,8.78,78.8,94,75,5.82,GA,1590275892
te anau,-45.42,167.72,50.65,77,78,2.19,NZ,1590275892
lebu,-37.62,-73.65,52.88,81,41,5.32,CL,1590275892
hobart,-42.88,147.33,48.99,87,75,9.17,AU,1590275635
kodiak,57.79,-152.41,48.2,81,90,10.29,US,1590275892
saint george,37.1,-113.58,78.01,11,1,16.11,US,1590275743
srinivaspur,13.33,78.22,75.2,78,40,3.36,IN,1590275892
paamiut,61.99,-49.67,41.4,72,35,18.3,GL,1590275892
qaanaaq,77.48,-69.36,28.8,92,0,2.91,GL,1590275481
pasighat,28.07,95.33,72.43,83,99,1.41,IN,1590275893
saint anthony,45.02,-93.22,72.0,68,75,5.82,US,1590275893
vavoua,7.38,-6.48,73.6,96,4,4.03,CI,1590275893
evensk,61.95,159.23,42.71,60,0,3.67,RU,1590275893
rikitea,-23.12,-134.97,70.7,67,34,20.58,PF,1590275481
marshall,34.38,-86.33,84.0,61,40,3.36,US,1590275893
punta arenas,-53.15,-70.92,46.4,93,90,9.17,CL,1590275621
ponta do sol,32.67,-17.1,75.2,44,20,23.04,PT,1590275893
isangel,-19.55,169.27,80.6,65,75,6.98,VU,1590275893
beringovskiy,63.05,179.32,31.89,98,96,12.93,RU,1590275893
vryheid,-27.77,30.79,50.63,53,0,2.66,ZA,1590275893
new norfolk,-42.78,147.06,46.99,86,91,1.01,AU,1590275708
albany,42.6,-73.97,75.99,27,0,1.01,US,1590275812
yellowknife,62.46,-114.35,44.6,48,75,14.99,CA,1590275743
mataura,-46.19,168.86,51.53,79,100,1.88,NZ,1590275893
ucluelet,48.93,-125.55,53.6,76,90,4.7,CA,1590275697
east london,-33.02,27.91,64.2,80,0,4.18,ZA,1590275893
nikolskoye,59.7,30.79,41.0,65,0,6.71,RU,1590275893
lagoa,39.05,-27.98,65.26,90,96,12.24,PT,1590275893
atuona,-9.8,-139.03,80.64,72,4,15.79,PF,1590275893
kahului,20.89,-156.47,89.6,46,40,23.04,US,1590275894
barrow,71.29,-156.79,33.8,80,90,12.75,US,1590275443
mount isa,-20.73,139.5,51.8,71,0,5.82,AU,1590275894
samarina,57.89,27.81,39.2,86,82,6.62,RU,1590275894
cidreira,-30.18,-50.21,59.74,77,33,15.48,BR,1590275894
havre-saint-pierre,50.23,-63.6,46.4,52,1,8.05,CA,1590275894
bambous virieux,-20.34,57.76,68.0,88,20,2.24,MU,1590275894
vaini,-21.2,-175.2,78.8,78,40,3.36,TO,1590275894
gumdag,39.21,54.59,84.83,16,0,5.84,TM,1590275894
victoria point,-27.58,153.3,61.0,59,0,1.99,AU,1590275894
norman wells,65.28,-126.83,64.4,39,20,10.29,CA,1590275894
fernley,39.61,-119.25,68.0,16,20,4.0,US,1590275894
sabha,27.04,14.43,75.97,26,23,15.75,LY,1590275619
clovis,36.83,-119.7,84.99,17,20,10.29,US,1590275821
cachoeira do sul,-30.04,-52.89,58.37,92,100,11.3,BR,1590275894
quatre cocos,-20.21,57.76,68.0,88,20,2.24,MU,1590275894
coahuayana,18.73,-103.68,80.6,65,40,11.41,MX,1590275895
ushuaia,-54.8,-68.3,41.0,86,90,27.51,AR,1590275761
arraial do cabo,-22.97,-42.03,76.23,83,39,15.66,BR,1590275837
mount gambier,-37.83,140.77,48.2,93,90,8.05,AU,1590275481
katangli,51.71,143.23,40.05,86,96,8.68,RU,1590275895
opuwo,-18.06,13.84,61.79,38,0,8.46,NA,1590275895
yulara,-25.24,130.99,35.6,59,0,3.36,AU,1590275895
hermanus,-34.42,19.23,59.72,79,0,7.18,ZA,1590275895
krasnyy chikoy,50.36,108.75,49.17,58,35,1.25,RU,1590275895
puerto ayora,-0.74,-90.35,80.6,65,20,16.11,EC,1590275895
tiksi,71.69,128.87,41.76,84,80,16.28,RU,1590275895
bluff,-46.6,168.33,50.41,90,100,1.86,NZ,1590275895
baculin,7.45,126.58,82.81,73,94,4.32,PH,1590275895
cockburn town,21.46,-71.14,82.4,78,75,11.41,TC,1590275895
poum,-20.23,164.02,76.89,75,99,15.32,NC,1590275895
siparia,10.13,-61.5,84.2,66,40,8.05,TT,1590275895
vitim,59.45,112.56,59.65,42,78,0.58,RU,1590275895
khilok,51.37,110.47,53.33,51,100,0.34,RU,1590275895
padang,-0.95,100.35,78.15,78,97,4.9,ID,1590275895
coquimbo,-29.95,-71.34,57.2,76,0,2.8,CL,1590275895
tuktoyaktuk,69.45,-133.04,39.2,98,5,13.87,CA,1590275895
taksimo,56.34,114.88,51.53,43,68,2.21,RU,1590275896
ancud,-41.87,-73.82,59.0,100,90,12.75,CL,1590275600
khatanga,71.97,102.5,54.57,76,48,5.01,RU,1590275896
rutland,43.62,-73.02,71.6,26,1,17.22,US,1590275896
mason city,43.15,-93.2,70.0,77,75,10.29,US,1590275896
oum hadjer,13.3,19.7,90.23,28,19,11.21,TD,1590275896
truth or consequences,33.13,-107.25,88.0,8,1,18.34,US,1590275730
roald,62.58,6.13,53.6,50,89,6.93,NO,1590275896
esperance,-33.87,121.9,53.6,46,100,19.46,AU,1590275896
walvis bay,-22.96,14.51,59.0,77,0,3.36,NA,1590275896
noyabrsk,63.2,75.45,51.31,83,60,13.0,RU,1590275896
san andres,12.58,-81.7,87.8,74,75,5.82,CO,1590275896
chokurdakh,70.63,147.92,29.82,97,84,4.47,RU,1590275896
fort nelson,58.81,-122.7,62.6,48,75,14.99,CA,1590275896
manado,1.49,124.85,77.0,94,20,1.12,ID,1590275896
mokhotlong,-29.29,29.07,38.68,72,0,1.79,LS,1590275896
mporokoso,-9.37,30.12,56.98,78,0,6.46,ZM,1590275896
aksarka,66.56,67.8,48.04,70,57,9.28,RU,1590275896
sangar,63.92,127.47,50.63,47,100,2.84,RU,1590275896
wenling,28.37,121.36,77.0,87,27,0.94,CN,1590275897
tiznit,29.58,-9.5,81.86,26,3,0.81,MA,1590275897
donskoye,45.46,41.97,46.4,70,0,6.71,RU,1590275897
kaman,27.65,77.27,92.79,17,59,5.82,IN,1590275897
pisco,-13.7,-76.22,64.99,82,75,5.82,PE,1590275897
arman,59.7,150.17,46.47,55,9,4.59,RU,1590275897
georgetown,5.41,100.34,78.8,94,20,4.7,MY,1590275897
mareeba,-17.0,145.43,62.01,78,46,7.0,AU,1590275897
faanui,-16.48,-151.75,80.83,78,2,18.45,PF,1590275897
nouakchott,18.09,-15.98,64.4,93,40,17.22,MR,1590275897
meulaboh,4.14,96.13,77.79,88,100,4.25,ID,1590275897
tuatapere,-46.13,167.68,50.31,88,100,1.21,NZ,1590275897
gizo,-8.1,156.84,83.95,72,100,5.95,SB,1590275897
boleslawiec,51.26,15.57,53.01,76,100,4.0,PL,1590275897
avarua,-21.21,-159.78,80.6,83,71,8.05,CK,1590275897
aswan,24.09,32.91,85.6,26,0,20.78,EG,1590275897
sibolga,1.74,98.78,77.0,82,100,4.41,ID,1590275897
jamestown,42.1,-79.24,70.0,82,90,4.7,US,1590275764
gorontalo,0.54,123.06,78.76,85,96,1.7,ID,1590275843
wundanyi,-3.4,38.36,58.33,100,16,6.64,KE,1590275898
butaritari,3.07,172.79,82.96,76,83,9.17,KI,1590275898
miraflores,19.22,-98.81,77.0,23,75,21.92,MX,1590275898
iberia,29.95,-91.75,86.0,66,20,9.17,US,1590275898
mar del plata,-38.0,-57.56,55.0,87,100,6.04,AR,1590275898
carnarvon,-24.87,113.63,70.7,48,100,34.72,AU,1590275898
miyazu,35.53,135.18,67.93,79,3,9.42,JP,1590275898
tselina,46.53,41.03,43.9,79,17,5.59,RU,1590275898
tali,9.45,-1.12,83.62,66,48,11.32,GH,1590275898
basco,20.45,121.97,81.99,84,100,23.91,PH,1590275898
torbay,47.67,-52.73,43.0,71,75,14.99,CA,1590275898
nome,64.5,-165.41,59.0,66,75,9.17,US,1590275898
saskylakh,71.92,114.08,47.59,93,82,9.24,RU,1590275481
north bend,43.41,-124.22,59.0,62,1,17.22,US,1590275898
lircay,-12.99,-74.72,51.85,65,80,1.81,PE,1590275898
port elizabeth,-33.92,25.57,51.8,93,0,3.36,ZA,1590275898
bandarbeyla,9.49,50.81,87.8,55,60,19.15,SO,1590275899
shache,38.42,77.24,67.01,26,14,4.09,CN,1590275899
hit,33.64,42.83,82.04,30,59,6.22,IQ,1590275899
geraldton,-28.77,114.6,71.6,29,90,31.09,AU,1590275899
whitehorse,60.72,-135.05,66.2,22,40,17.22,CA,1590275899
vila velha,-20.33,-40.29,78.8,83,0,11.41,BR,1590275704
maceio,-9.67,-35.74,75.2,94,4,3.36,BR,1590275855
puerto del rosario,28.5,-13.86,71.6,73,27,9.17,ES,1590275899
hithadhoo,-0.6,73.08,83.91,74,97,9.24,MV,1590275899
pando,-34.72,-55.95,57.2,71,40,10.29,UY,1590275899
hirara,24.8,125.28,77.0,94,75,6.93,JP,1590275899
henties bay,-22.12,14.28,65.26,59,0,4.12,NA,1590275899
berlevag,70.86,29.09,45.03,70,61,23.67,NO,1590275899
kamenka,51.32,42.77,46.0,93,94,5.95,RU,1590275899
cozumel,20.51,-86.95,82.0,88,75,10.18,MX,1590275899
dikson,73.51,80.55,41.76,83,68,14.25,RU,1590275899
yerbogachen,61.28,108.01,63.43,54,91,7.02,RU,1590275900
olinda,-8.01,-34.86,77.0,94,75,2.24,BR,1590275900
puerto leguizamo,-0.19,-74.78,75.92,95,37,2.26,CO,1590275900
tulum,20.22,-87.47,82.0,88,75,8.81,MX,1590275900
mitsamiouli,-11.38,43.28,79.9,72,10,9.73,KM,1590275900
ada,43.42,-116.13,64.99,31,20,19.46,US,1590275900
la rioja,42.25,-2.5,53.6,71,93,5.82,ES,1590275900
belmonte,-15.86,-38.88,75.2,88,75,4.7,BR,1590275900
le passage,44.2,0.6,54.0,87,2,3.36,FR,1590275900
udachnyy,66.42,112.4,62.6,39,15,4.47,RU,1590275900
bumba,2.18,22.47,71.67,94,99,1.23,CD,1590275900
naze,28.37,129.48,73.4,94,75,21.92,JP,1590275900
luderitz,-26.65,15.16,57.2,82,0,2.24,NA,1590275900
oranjemund,-28.55,16.43,57.09,87,0,7.61,NA,1590275900
kilinochchi,9.4,80.4,82.22,84,45,10.83,LK,1590275900
bella union,-30.28,-57.6,55.26,77,96,9.55,UY,1590275900
sabla,12.75,4.71,91.31,29,84,5.44,NG,1590275900
stutterheim,-32.57,27.42,56.37,40,0,6.15,ZA,1590275900
broome,42.25,-75.83,75.0,60,1,4.7,US,1590275901
saint-leu,-21.15,55.28,66.2,72,75,6.93,RE,1590275901
chapleau,47.84,-83.4,84.2,20,40,9.17,CA,1590275901
syasstroy,60.14,32.57,37.98,78,0,6.73,RU,1590275901
ghanzi,-21.57,21.78,53.13,47,0,4.36,BW,1590275901
victoria,22.29,114.16,78.01,78,75,5.99,HK,1590275622
portland,45.52,-122.68,64.0,44,90,3.36,US,1590275721
tubuala,9.52,-79.03,86.0,74,40,6.93,PA,1590275901
kantang,7.41,99.52,80.01,87,100,0.47,TH,1590275901
rio grande,-32.03,-52.1,60.01,99,99,5.99,BR,1590275901
omboue,-1.57,9.26,78.82,90,90,5.3,GA,1590275901
vidisha,23.53,77.82,84.22,18,22,5.95,IN,1590275901
goure,13.98,10.27,82.71,51,6,8.46,NE,1590275901
cherskiy,68.75,161.3,34.68,78,1,9.55,RU,1590275901
seinajoki,62.79,22.83,46.99,70,100,4.7,FI,1590275902
havelock,34.88,-76.9,80.01,74,12,5.99,US,1590275902
pilar,-9.6,-35.96,75.2,94,6,3.36,BR,1590275902
praia,14.92,-23.51,73.4,73,20,11.41,CV,1590275902
joetsu,37.15,138.24,69.01,81,3,3.0,JP,1590275902
bereda,43.27,-7.54,54.0,93,100,10.0,ES,1590275902
dunedin,-45.87,170.5,53.38,65,100,3.06,NZ,1590275902
faya,18.39,42.45,68.0,63,33,2.21,SA,1590275902
sur,22.57,59.53,83.57,70,0,12.01,OM,1590275902
shelburne,44.08,-80.2,78.8,47,20,9.17,CA,1590275902
port augusta,-32.5,137.77,55.4,71,75,11.41,AU,1590275902
alice springs,-23.7,133.88,46.4,61,75,5.82,AU,1590275902
souillac,-20.52,57.52,68.0,88,20,2.24,MU,1590275902
hambantota,6.12,81.12,81.64,82,98,16.64,LK,1590275902
tual,-5.67,132.75,82.35,82,98,24.09,ID,1590275902
narsaq,60.92,-46.05,53.6,30,18,12.75,GL,1590275902
matagami,49.75,-77.63,69.8,18,1,6.93,CA,1590275794
morondava,-20.28,44.28,70.3,71,0,8.52,MG,1590275902
komsomolskiy,40.43,71.72,73.24,32,0,1.81,UZ,1590275902
itarema,-2.92,-39.92,77.83,90,96,8.14,BR,1590275903
palmer,42.16,-72.33,66.2,29,20,10.29,US,1590275903
nyurba,63.28,118.33,63.01,61,42,3.56,RU,1590275903
grindavik,63.84,-22.43,48.2,66,24,10.29,IS,1590275903
codrington,-38.27,141.97,51.44,74,82,12.46,AU,1590275903
preobrazheniye,42.9,133.91,47.82,94,100,3.27,RU,1590275903
deputatskiy,69.3,139.9,34.59,100,100,3.33,RU,1590275903
urengoy,65.97,78.37,55.2,80,100,7.43,RU,1590275847
bauchi,10.5,10.0,84.34,49,69,6.08,NG,1590275903
kavaratti,10.57,72.64,84.58,76,41,12.17,IN,1590275903
katsuura,35.13,140.3,71.01,93,40,3.36,JP,1590275903
qaqortoq,60.72,-46.03,53.6,30,28,12.75,GL,1590275903
plainfield,40.62,-74.42,63.0,67,90,13.87,US,1590275903
twin falls,42.56,-114.46,62.6,33,1,20.8,US,1590275903
mae sai,20.43,99.88,75.99,88,100,3.36,TH,1590275903
florianopolis,-27.61,-48.5,69.8,40,9,17.22,BR,1590275652
port hardy,50.7,-127.42,53.6,87,90,5.82,CA,1590275903
klaksvik,62.23,-6.59,44.6,100,100,21.92,FO,1590275903
ust-maya,60.42,134.53,54.25,63,99,2.66,RU,1590275904
olafsvik,64.89,-23.71,48.18,64,47,6.67,IS,1590275904
bereznik,62.86,42.71,31.28,97,0,1.79,RU,1590275904
shagonar,51.53,92.8,54.75,52,0,1.79,RU,1590275904
provideniya,64.38,-173.3,38.8,85,100,5.37,RU,1590275904
pevek,69.7,170.31,30.69,95,89,3.94,RU,1590275904
praya,14.92,-23.51,73.4,73,20,11.41,CV,1590275904
midland,32.0,-102.08,84.2,48,40,23.04,US,1590275890
nanakuli,21.39,-158.15,84.2,62,1,9.17,US,1590275904
praia da vitoria,38.73,-27.07,66.2,93,40,11.23,PT,1590275904
grinnell,41.74,-92.72,73.4,73,20,10.29,US,1590275853
mosbach,49.35,9.14,52.0,1,47,8.57,DE,1590275904
kruisfontein,-34.0,24.73,52.52,83,0,4.32,ZA,1590275904
cabo san lucas,22.89,-109.91,86.0,42,5,10.29,MX,1590275877
amga,60.9,131.96,55.13,40,97,4.83,RU,1590275904
gander,48.97,-54.59,42.8,52,75,19.46,CA,1590275904
san cristobal,7.77,-72.22,91.4,41,40,25.28,VE,1590275904
dickinson,29.46,-95.05,87.01,70,40,16.11,US,1590275904
tuy hoa,13.08,109.3,79.36,83,100,7.99,VN,1590275702
turukhansk,65.82,87.98,57.85,79,96,9.35,RU,1590275904
ranong,9.97,98.63,81.57,81,100,3.29,TH,1590275905
whitecourt,54.15,-115.69,59.0,51,75,5.82,CA,1590275905
topana,44.82,24.52,47.97,77,3,5.28,RO,1590275905
mongar,27.27,91.24,53.64,89,77,5.03,BT,1590275905
airai,-8.93,125.41,61.38,100,94,3.67,TL,1590275905
touros,-5.2,-35.46,77.0,94,75,8.05,BR,1590275905
mecca,21.43,39.83,84.7,32,0,2.46,SA,1590275875
yar-sale,66.83,70.83,49.06,79,99,8.84,RU,1590275905
hun,29.13,15.95,63.27,64,0,5.08,LY,1590275905
port moresby,-9.44,147.18,78.8,88,40,11.41,PG,1590275905
kainantu,-6.29,145.87,69.8,82,47,1.59,PG,1590275905
ipixuna,-1.76,-48.8,78.8,88,75,3.36,BR,1590275905
los llanos de aridane,28.66,-17.92,68.0,88,100,16.11,ES,1590275905
upata,8.01,-62.4,84.0,69,40,5.01,VE,1590275905
vanavara,60.34,102.28,66.74,45,74,1.7,RU,1590275905
la palma,33.85,-118.05,78.01,49,20,6.93,US,1590275905
cotonou,6.37,2.42,84.2,79,40,10.29,BJ,1590275905
mandal,25.45,74.57,85.66,36,19,14.61,IN,1590275905
antofagasta,-23.65,-70.4,59.0,77,20,8.05,CL,1590275906
caceres,39.52,-6.37,73.0,58,46,1.01,ES,1590275906
sinnamary,5.38,-52.95,78.96,88,60,9.04,GF,1590275906
tsabong,-26.02,22.4,58.23,38,0,3.83,BW,1590275906
vao,-22.67,167.48,74.23,77,26,21.12,NC,1590275906
ciudad del maiz,22.4,-99.6,82.56,52,0,13.09,MX,1590275906
lata,40.16,-8.33,62.01,86,9,0.78,PT,1590275906
konakovo,56.7,36.77,39.13,98,74,3.4,RU,1590275906
wencheng,33.06,113.8,71.49,49,93,7.25,CN,1590275906
north platte,41.12,-100.77,73.99,64,90,12.75,US,1590275906
ceres,37.59,-120.96,84.2,10,1,12.75,US,1590275906
oussouye,12.48,-16.55,77.0,83,24,4.7,SN,1590275906
sisimiut,66.94,-53.67,37.69,79,12,20.2,GL,1590275906
severo-kurilsk,50.68,156.12,42.04,66,44,7.18,RU,1590275906
usak,38.5,29.42,40.64,79,0,7.18,TR,1590275693
jinxi,30.43,116.29,77.09,67,1,1.92,CN,1590275906
kindu,-2.95,25.95,71.17,93,51,0.56,CD,1590275906
warrnambool,-38.38,142.48,51.01,89,75,13.18,AU,1590275907
jalingo,8.88,11.37,83.03,66,100,3.38,NG,1590275907
okhotsk,59.38,143.3,46.35,58,60,2.51,RU,1590275907
qasigiannguit,68.82,-51.19,39.2,69,80,6.93,GL,1590275907
acari,-15.43,-74.62,68.43,62,20,3.38,PE,1590275907
ilulissat,69.22,-51.1,39.2,69,66,6.93,GL,1590275869
tiarei,-17.53,-149.33,84.2,70,40,10.29,PF,1590275907
kavieng,-2.57,150.8,84.33,72,99,3.13,PG,1590275907
marawi,8.0,124.29,75.99,86,66,7.0,PH,1590275907
cacule,-14.5,-42.22,70.81,80,43,4.72,BR,1590275907
chichi,7.27,8.93,81.18,76,97,7.23,NG,1590275907
lompoc,34.64,-120.46,64.4,63,1,16.11,US,1590275634
hwange,-18.37,26.5,56.59,62,0,1.81,ZW,1590275907
weligama,5.97,80.42,80.96,85,71,11.23,LK,1590275907
shitanjing,39.23,106.34,55.99,22,95,1.99,CN,1590275907
doha,25.29,51.53,86.0,79,0,3.36,QA,1590275639
portobelo,9.55,-79.65,86.0,74,40,6.93,PA,1590275907
powell river,49.85,-124.54,61.0,59,90,9.17,CA,1590275626
iqaluit,63.75,-68.51,26.6,79,90,18.34,CA,1590275908
kaitangata,-46.28,169.85,50.0,78,100,8.01,NZ,1590275908
dmytrivka,45.97,28.99,49.68,68,0,5.01,UA,1590275908
asau,46.43,26.4,45.0,82,56,3.69,RO,1590275908
northam,51.03,-4.22,54.0,90,92,11.01,GB,1590275908
longyearbyen,78.22,15.64,39.2,89,75,3.36,SJ,1590275908
misratah,32.38,15.09,66.92,66,0,9.66,LY,1590275908
kunashak,55.7,61.55,55.0,97,95,1.01,RU,1590275908
alofi,-19.06,-169.92,80.6,83,35,9.17,NU,1590275908
todos santos,23.45,-110.22,68.0,75,61,5.01,MX,1590275908
ciudad real,39.0,-4.0,73.99,44,4,3.0,ES,1590275908
revda,56.8,59.93,55.4,62,40,11.18,RU,1590275908
chatrapur,19.35,84.98,82.09,88,65,15.23,IN,1590275908
waitara,-38.92,174.25,57.99,67,100,5.99,NZ,1590275908
leningradskiy,69.38,178.42,30.34,97,100,10.31,RU,1590275908
minudasht,37.23,55.37,64.4,68,0,9.17,IR,1590275908
guerrero negro,27.98,-114.06,68.38,59,16,20.13,MX,1590275864
muros,42.78,-9.06,57.99,74,100,1.99,ES,1590275908
russell,32.35,-85.2,89.6,52,20,5.82,US,1590275909
richards bay,-28.78,32.04,62.87,79,0,3.36,ZA,1590275909
sabang,5.89,95.32,83.7,79,100,16.24,ID,1590275909
miskolc,48.1,20.78,50.85,93,86,2.82,HU,1590275909
hamilton,39.18,-84.53,72.0,83,90,8.05,US,1590275743
matina,10.08,-83.29,86.0,74,75,8.05,CR,1590275909
matara,5.95,80.54,80.62,86,81,10.67,LK,1590275909
monrovia,6.3,-10.8,79.54,83,61,4.12,LR,1590275909
reggio di calabria,38.11,15.66,66.99,63,5,3.36,IT,1590275800
auki,-8.77,160.7,86.34,66,83,1.05,SB,1590275909
babu,24.42,111.52,75.47,80,83,1.28,CN,1590275909
lima,-12.04,-77.03,64.4,77,71,9.17,PE,1590275873
grand forks,47.93,-97.03,77.0,44,75,8.05,US,1590275791
banda aceh,5.56,95.32,81.21,79,100,10.65,ID,1590275909
abu kamal,34.45,40.92,77.52,37,45,11.36,SY,1590275909
coihaique,-45.58,-72.07,50.0,100,75,5.82,CL,1590275897
voyvozh,62.89,54.96,36.72,83,69,4.76,RU,1590275909
mananara,-16.17,49.77,71.1,89,58,4.09,MG,1590275909
sao joao da barra,-21.64,-41.05,74.55,91,33,14.09,BR,1590275910
suda,59.15,37.56,36.91,90,28,3.76,RU,1590275910
port hedland,-20.32,118.57,60.8,41,29,12.75,AU,1590275910
valparaiso,-33.04,-71.63,71.6,24,16,13.87,CL,1590275824
clyde river,70.47,-68.59,26.6,100,90,11.41,CA,1590275910
sanming,26.25,117.62,73.29,83,0,0.54,CN,1590275910
sechura,-5.56,-80.82,73.29,65,17,18.21,PE,1590275910
hofn,64.25,-15.21,46.8,60,27,6.17,IS,1590275910
banjar,-8.19,114.97,82.4,100,20,6.93,ID,1590275910
castro,-24.79,-50.01,48.85,77,20,10.92,BR,1590275910
troutdale,45.54,-122.39,63.0,44,90,5.82,US,1590275681
nioro,13.35,-15.75,75.47,66,1,6.69,GM,1590275910
ambilobe,-13.2,49.05,71.64,84,0,4.38,MG,1590275910
antsohihy,-14.88,47.99,74.62,68,0,8.95,MG,1590275910
agaro,7.85,36.65,59.56,87,14,1.07,ET,1590275910
nakamura,32.98,132.93,69.76,80,81,6.71,JP,1590275911
adrar,20.5,-10.07,86.23,13,0,10.2,MR,1590275911
ballyshannon,54.5,-8.18,53.01,90,100,8.99,IE,1590275911
batemans bay,-35.72,150.18,61.0,60,58,5.01,AU,1590275911
adwa,14.16,38.9,67.42,48,0,1.74,ET,1590275911
luanda,-8.84,13.23,78.8,88,75,4.25,AO,1590275809
tura,25.52,90.22,72.72,97,26,6.38,IN,1590275911
surt,31.21,16.59,66.09,72,0,13.11,LY,1590275911
kaihua,23.37,104.28,66.06,94,96,4.0,CN,1590275911
chuy,-33.7,-53.46,58.6,83,99,14.9,UY,1590275911
amahai,-3.33,128.92,81.03,81,88,2.06,ID,1590275911
upernavik,72.79,-56.15,29.66,97,23,14.81,GL,1590275911
lazaro cardenas,17.96,-102.2,82.29,73,32,11.36,MX,1590275911
honningsvag,70.98,25.97,43.95,83,22,23.22,NO,1590275779
chiang khong,20.26,100.4,75.0,62,100,0.63,TH,1590275911
xining,36.62,101.77,44.56,73,100,2.42,CN,1590275911
svetlogorsk,52.63,29.73,40.15,90,7,3.24,BY,1590275911
longview,32.5,-94.74,82.4,65,1,10.29,US,1590275911
kandi,11.13,2.94,85.21,57,81,7.18,BJ,1590275911
bako,5.78,36.57,64.4,82,17,3.69,ET,1590275911
biak,-0.91,122.88,79.75,77,49,1.43,ID,1590275911
aksu,41.12,80.26,67.23,26,0,2.82,CN,1590275912
lasa,46.62,10.7,50.0,71,75,8.05,IT,1590275912
jardim,-21.48,-56.14,54.18,77,7,4.59,BR,1590275642
esperantinopolis,-4.87,-44.71,76.57,91,7,2.15,BR,1590275912
capreol,46.71,-80.92,84.2,21,40,8.05,CA,1590275912
chapais,49.78,-74.85,59.0,22,1,5.82,CA,1590275912
xai-xai,-25.05,33.64,64.8,85,0,1.86,MZ,1590275912
cabedelo,-6.98,-34.83,75.2,100,75,2.24,BR,1590275912
pochutla,15.74,-96.47,89.01,58,40,11.41,MX,1590275912
toamasina,-18.17,49.38,68.0,100,75,1.9,MG,1590275912
taltal,-25.4,-70.48,60.64,69,20,4.47,CL,1590275912
necochea,-38.55,-58.74,44.01,90,100,1.99,AR,1590275912
fairbanks,64.84,-147.72,71.01,23,1,5.12,US,1590275698
constitucion,-35.33,-72.42,57.74,51,29,8.63,CL,1590275734
san patricio,19.22,-104.7,80.6,74,5,17.22,MX,1590275912
hailey,43.52,-114.32,48.2,66,90,9.17,US,1590275912
rossland,49.08,-117.8,63.0,59,95,1.01,CA,1590275913
miri,4.41,114.01,78.8,94,75,8.05,MY,1590275913
fortuna,40.6,-124.16,62.01,67,20,16.11,US,1590275913
valverde del camino,37.58,-6.75,80.01,49,0,1.95,ES,1590275913
lakes entrance,-37.88,147.98,52.0,93,81,1.01,AU,1590275913
aktash,50.3,87.73,36.81,92,13,1.79,RU,1590275913
aykhal,66.0,111.5,62.6,39,63,4.47,RU,1590275913
chicama,-7.84,-79.15,70.16,72,61,7.45,PE,1590275913
maraba,-5.37,-49.12,80.6,94,75,2.04,BR,1590275913
barra do garcas,-15.89,-52.26,68.31,78,51,6.93,BR,1590275654
gamba,-2.65,10.0,78.78,90,66,5.28,GA,1590275913
fare,-16.7,-151.02,81.63,76,2,19.69,PF,1590275913
beyneu,45.32,55.2,72.73,53,2,11.01,KZ,1590275913
makarov,48.63,142.8,44.71,85,100,6.08,RU,1590275913
dudinka,69.41,86.18,51.8,87,75,8.95,RU,1590275913
siniscola,40.57,9.69,65.44,64,98,6.24,IT,1590275913
agustin codazzi,10.03,-73.24,85.03,70,88,3.51,CO,1590275913
totoral,-17.41,-70.36,62.33,37,0,0.72,PE,1590275913
la asuncion,11.03,-63.86,95.0,50,6,25.28,VE,1590275914
lucea,18.45,-78.17,84.2,79,20,3.36,JM,1590275914
bira,49.0,132.47,50.34,86,100,7.78,RU,1590275914
paka,4.64,103.44,78.8,100,64,1.12,MY,1590275914
valdivia,-39.81,-73.25,48.2,100,90,3.36,CL,1590275814
salalah,17.02,54.09,84.2,89,61,2.24,OM,1590275914
columbia,34.0,-81.03,89.6,43,1,4.7,US,1590275909
lerwick,60.15,-1.15,48.2,93,100,31.09,GB,1590275914
jieshi,22.81,115.83,75.47,86,74,10.89,CN,1590275914
manokwari,-0.87,134.08,84.06,69,19,2.21,ID,1590275914
mayo,38.89,-76.51,78.01,78,40,5.82,US,1590275727
longhua,23.61,114.19,75.4,88,14,1.21,CN,1590275914
pestovo,58.59,35.8,36.3,95,18,1.32,RU,1590275914
bengkulu,-3.8,102.27,76.6,82,14,4.47,ID,1590275914
petatlan,17.52,-101.27,86.0,62,5,11.41,MX,1590275914
severnyy,50.68,36.55,42.8,93,75,6.71,RU,1590275914
pandan,14.05,124.17,83.23,82,100,6.62,PH,1590275914
alyangula,-13.85,136.42,62.6,88,84,20.83,AU,1590275914
virden,39.5,-89.77,82.99,67,46,5.01,US,1590275914
mercedes,-34.65,-59.43,50.0,77,40,3.62,AR,1590275914
madimba,-10.4,40.33,73.4,53,40,10.94,TZ,1590275915
mastic beach,40.77,-72.85,54.0,81,90,5.82,US,1590275824
mehamn,71.04,27.85,45.81,68,29,19.51,NO,1590275915
trelew,-43.25,-65.31,64.67,29,97,20.18,AR,1590275765
zaporizhzhya,47.82,35.18,46.99,67,14,4.14,UA,1590275915
boyolangu,-8.12,111.89,75.79,83,0,0.67,ID,1590275915
ewa beach,21.32,-158.01,84.2,62,1,9.17,US,1590275915
tautira,-17.73,-149.15,84.2,70,40,10.29,PF,1590275915
kiunga,-6.12,141.29,74.44,98,100,2.66,PG,1590275915
ostrovnoy,68.05,39.51,37.11,79,81,18.52,RU,1590275915
mangan,27.52,88.53,71.76,57,100,1.74,IN,1590275915
vardo,70.37,31.11,43.72,81,80,15.37,NO,1590275915
solnechnyy,50.72,136.63,48.11,59,98,9.48,RU,1590275915
kudahuvadhoo,2.67,72.89,84.27,77,92,22.1,MV,1590275915
konanur,12.63,76.05,72.97,89,58,6.87,IN,1590275915
bosaso,11.28,49.18,89.89,48,0,4.61,SO,1590275915
rosetta,31.4,30.42,68.0,60,40,18.34,EG,1590275915
monte alegre,-2.01,-54.07,77.79,91,76,3.27,BR,1590275916
hay river,60.82,-115.8,44.6,56,20,9.17,CA,1590275916
thunder bay,48.4,-89.32,62.6,77,75,9.17,CA,1590275916
zhanakorgan,43.91,67.25,74.21,29,0,1.72,KZ,1590275916
peterhead,57.51,-1.8,55.0,57,100,18.34,GB,1590275916
ghatanji,20.13,78.32,90.21,16,3,9.19,IN,1590275916
dolinsk,47.35,142.8,48.2,87,75,4.47,RU,1590275916
aksay,47.26,39.87,48.2,81,0,4.47,RU,1590275916
kifri,34.7,44.97,84.36,22,54,8.25,IQ,1590275916
kieta,-6.22,155.63,83.89,70,99,4.0,PG,1590275916
jaciara,-15.97,-54.97,59.81,79,100,7.43,BR,1590275916
kupang,-10.17,123.58,77.0,83,40,16.11,ID,1590275916
carutapera,-1.2,-46.02,75.99,93,100,3.74,BR,1590275916
manaia,-39.55,174.13,57.99,84,100,5.01,NZ,1590275916
contamana,-7.33,-75.02,77.99,88,98,2.73,PE,1590275916
meadow lake,34.8,-106.54,84.0,9,40,13.87,US,1590275917
kadyy,57.79,43.19,41.95,96,100,5.84,RU,1590275917
ust-nera,64.57,143.2,43.38,60,100,4.61,RU,1590275917
tateyama,34.98,139.87,73.0,70,83,7.38,JP,1590275917
toyooka,35.53,134.83,71.6,73,20,10.29,JP,1590275917
dingle,11.0,122.67,82.72,77,98,1.95,PH,1590275917
dong hoi,17.48,106.6,79.57,81,100,7.18,VN,1590275917
sao filipe,14.9,-24.5,75.81,68,0,6.31,CV,1590275917
sydney,-33.87,151.21,61.0,67,75,29.97,AU,1590275864
korla,41.76,86.15,73.99,73,38,3.0,CN,1590275917
magadan,59.57,150.8,43.63,63,98,4.03,RU,1590275917
kismayo,-0.36,42.55,79.54,80,20,13.2,SO,1590275917
esso,55.93,158.7,39.27,76,88,2.71,RU,1590275917
huai yot,7.79,99.63,77.58,93,100,1.16,TH,1590275917
nizhniy kuranakh,58.84,125.49,50.45,58,99,2.44,RU,1590275917
washington,47.5,-120.5,69.01,28,1,5.82,US,1590275853
umm lajj,25.02,37.27,82.31,66,0,7.07,SA,1590275917
salamiyah,35.01,37.05,61.79,70,6,17.49,SY,1590275917
brae,60.4,-1.35,48.2,100,100,18.34,GB,1590275917
gazanjyk,39.24,55.52,85.03,14,0,7.94,TM,1590275917
taoudenni,22.68,-3.98,86.47,25,0,15.12,ML,1590275918
terme,41.21,36.97,55.4,71,75,17.22,TR,1590275918
calabozo,8.92,-67.43,87.76,45,33,3.06,VE,1590275918
samarai,-10.62,150.67,79.41,88,92,13.11,PG,1590275918
chimbote,-9.09,-78.58,67.42,80,85,8.46,PE,1590275853
talnakh,69.49,88.4,51.8,87,75,8.95,RU,1590275918
saldanha,-33.01,17.94,51.8,87,0,2.24,ZA,1590275918
dzhebariki-khaya,62.22,135.8,54.19,40,97,3.83,RU,1590275918
turbat,26.0,63.04,78.31,83,0,3.83,PK,1590275918
kulhudhuffushi,6.62,73.07,83.77,80,27,16.44,MV,1590275918
erzin,36.96,36.2,64.4,100,75,6.93,TR,1590275918
churapcha,62.0,132.43,53.65,43,87,4.16,RU,1590275918
mana,5.66,-53.78,78.96,87,78,8.68,GF,1590275918
manavgat,36.79,31.44,62.6,36,38,18.34,TR,1590275918
trairi,-3.28,-39.27,77.2,91,41,5.59,BR,1590275855
lang son,21.83,106.73,76.41,90,78,0.72,VN,1590275918
ordzhonikidze,52.44,61.74,65.53,59,37,9.66,KZ,1590275919
chifeng,42.27,118.96,60.67,41,0,12.57,CN,1590275919
rassvet,46.83,40.75,44.2,79,3,6.67,RU,1590275919
novyy urengoy,66.08,76.63,53.19,82,78,5.84,RU,1590275919
boshnyakovo,49.63,142.17,45.64,93,100,4.21,RU,1590275919
huasahuasi,-11.32,-75.62,42.98,100,90,4.07,PE,1590275919
tianpeng,30.99,103.94,71.01,1,100,4.88,CN,1590275919
biograd na moru,43.94,15.45,64.99,67,77,5.82,HR,1590275919
vostok,46.49,135.88,52.18,88,95,2.13,RU,1590275919
bolu,40.67,31.58,41.36,85,93,3.22,TR,1590275919
utiel,39.57,-1.2,66.0,43,29,8.55,ES,1590275919
anadyr,64.75,177.48,39.2,93,75,6.71,RU,1590275919
khanpur,28.65,70.66,91.63,16,0,8.46,PK,1590275919
sobolevo,54.43,31.9,37.08,93,22,2.37,RU,1590275919
puerto escondido,15.85,-97.07,86.0,70,20,9.17,MX,1590275919
ribas do rio pardo,-20.44,-53.76,55.69,73,100,4.0,BR,1590275920
san-pedro,4.75,-6.64,78.66,86,19,4.47,CI,1590275920
harper,4.38,-7.72,78.6,85,30,3.09,LR,1590275920
hasaki,35.73,140.83,71.01,77,75,6.93,JP,1590275920
zirgan,53.22,55.92,63.66,59,68,13.8,RU,1590275920
la romana,18.43,-68.97,82.4,83,40,13.87,DO,1590275663
hengshan,45.2,130.92,54.0,86,99,3.18,CN,1590275920
olavarria,-36.89,-60.32,46.99,72,80,6.53,AR,1590275920
koson,39.04,65.58,68.0,60,0,6.93,UZ,1590275920
kastamonu,41.5,33.67,38.14,91,97,3.51,TR,1590275920
cayenne,4.93,-52.33,77.0,100,99,1.12,GF,1590275920
fez,34.04,-5.0,71.6,33,44,6.93,MA,1590275763
porto novo,6.5,2.6,84.2,79,40,10.29,BJ,1590275920
arroio grande,-32.24,-53.09,52.0,6,100,14.43,BR,1590275920
avera,33.19,-82.53,87.8,45,1,4.7,US,1590275921
amalapuram,16.58,82.02,81.32,93,52,3.0,IN,1590275921
maykor,59.01,55.88,43.3,88,89,4.56,RU,1590275921
sampit,-2.53,112.95,75.79,95,55,0.13,ID,1590275921
wonthaggi,-38.6,145.59,54.0,81,63,4.0,AU,1590275921
dourbali,11.81,15.86,95.09,29,20,4.72,TD,1590275922
ahipara,-35.17,173.17,63.03,89,100,12.5,NZ,1590275922
porangatu,-13.44,-49.15,73.58,87,49,3.87,BR,1590275922
fuzhou,26.06,119.31,69.8,94,2,1.48,CN,1590275922
singaparna,-7.35,108.11,70.92,85,44,2.06,ID,1590275922
mosquera,4.71,-74.23,64.4,52,40,9.17,CO,1590275922
purwodadi,-7.09,110.92,74.5,87,0,2.84,ID,1590275922
havoysund,71.0,24.66,48.2,77,10,16.11,NO,1590275922
hanyang,32.14,105.51,52.0,92,100,18.01,CN,1590275922
knysna,-34.04,23.05,53.6,87,0,3.36,ZA,1590275922
maiduguri,11.85,13.16,90.48,35,19,1.05,NG,1590275922
jiwani,25.05,61.74,82.71,83,6,7.78,PK,1590275922
san policarpo,12.18,125.51,81.57,81,99,4.0,PH,1590275922
swift current,50.28,-107.8,60.8,44,75,17.22,CA,1590275922
gornyy,55.12,83.91,53.82,79,37,6.02,RU,1590275923
olindina,-11.37,-38.33,72.41,93,3,6.38,BR,1590275923
yumen,40.28,97.2,60.3,31,2,9.71,CN,1590275923
wicklow,53.0,-6.42,53.01,93,75,19.46,IE,1590275923
ouesso,1.61,16.05,72.03,96,4,1.43,CG,1590275923
polunochnoye,60.87,60.42,40.86,95,0,1.21,RU,1590275923
sindal,57.47,10.2,51.01,85,63,4.0,DK,1590275923
guazapa,13.88,-89.17,82.4,74,40,13.87,SV,1590275923
